[
    {
        "name": "2023-01-01_T30SVD_prediction.tif",
        "bounds": {
            "lat_min": 34.24810730489237,
            "lat_max": 35.24303017053707,
            "lon_min": -4.086440454676993,
            "lon_max": -2.892724911530323
        }
    },
    {
        "name": "2023-01-01_T37NFF_prediction.tif",
        "bounds": {
            "lat_min": 4.434354139951234,
            "lat_max": 5.425259436844808,
            "lon_min": 39.90131793320057,
            "lon_max": 40.8935060546541
        }
    },
    {
        "name": "2023-01-01_T37NBC_prediction.tif",
        "bounds": {
            "lat_min": 1.718876966796933,
            "lat_max": 2.7129571319963577,
            "lon_min": 36.303591153761424,
            "lon_max": 37.28889057577086
        }
    },
    {
        "name": "2023-01-01_T35NKC_prediction.tif",
        "bounds": {
            "lat_min": 1.718876966796933,
            "lat_max": 2.7129571319963577,
            "lon_min": 24.30359115376143,
            "lon_max": 25.288890575770864
        }
    },
    {
        "name": "2023-01-01_T30SXC_prediction.tif",
        "bounds": {
            "lat_min": 33.346711019598644,
            "lat_max": 34.32042911148675,
            "lon_min": -1.9253197479763096,
            "lon_max": -0.719777270769232
        }
    },
    {
        "name": "2023-01-01_T32PNT_prediction.tif",
        "bounds": {
            "lat_min": 10.767029753216537,
            "lat_max": 11.758265072570865,
            "lon_min": 8.999817065468614,
            "lon_max": 10.007522844521533
        }
    },
    {
        "name": "2023-01-01_T31SFS_prediction.tif",
        "bounds": {
            "lat_min": 32.444635394246156,
            "lat_max": 33.41904670709489,
            "lon_min": 4.063841231299286,
            "lon_max": 5.256368419576481
        }
    },
    {
        "name": "2023-01-01_T29QQV_prediction.tif",
        "bounds": {
            "lat_min": 17.0878748342665,
            "lat_max": 18.06688474698065,
            "lon_min": -7.120842651177109,
            "lon_max": -6.073872805466912
        }
    },
    {
        "name": "2023-01-01_T31SGS_prediction.tif",
        "bounds": {
            "lat_min": 32.43116921731742,
            "lat_max": 33.39485486024206,
            "lon_min": 5.1267838904827014,
            "lon_max": 6.330097077164514
        }
    },
    {
        "name": "2023-01-01_T37PGM_prediction.tif",
        "bounds": {
            "lat_min": 9.857480781072587,
            "lat_max": 10.842445222298892,
            "lon_min": 40.823446450794336,
            "lon_max": 41.832916841254
        }
    },
    {
        "name": "2023-01-01_T34RCQ_prediction.tif",
        "bounds": {
            "lat_min": 26.11719749774746,
            "lat_max": 27.11952122597705,
            "lon_min": 18.99981364848818,
            "lon_max": 20.08992336364478
        }
    },
    {
        "name": "2023-01-01_T33PZN_prediction.tif",
        "bounds": {
            "lat_min": 10.75490508392436,
            "lat_max": 11.735297828950777,
            "lon_min": 17.742743768561333,
            "lon_max": 18.758195561657768
        }
    },
    {
        "name": "2023-01-01_T37QFD_prediction.tif",
        "bounds": {
            "lat_min": 20.708649594447937,
            "lat_max": 21.69101582455204,
            "lon_min": 39.960311900586014,
            "lon_max": 41.02786117314154
        }
    },
    {
        "name": "2023-01-01_T38RLV_prediction.tif",
        "bounds": {
            "lat_min": 30.62807083981121,
            "lat_max": 31.632004204799575,
            "lon_min": 42.91329390946198,
            "lon_max": 44.04885052164529
        }
    },
    {
        "name": "2023-01-01_T33QXV_prediction.tif",
        "bounds": {
            "lat_min": 17.09440722938356,
            "lat_max": 18.078887389240798,
            "lon_min": 15.939904626369962,
            "lon_max": 16.982375685332876
        }
    },
    {
        "name": "2023-01-01_T30SYA_prediction.tif",
        "bounds": {
            "lat_min": 31.529422327451968,
            "lat_max": 32.4941417267423,
            "lon_min": -0.8939237564718265,
            "lon_max": 0.29646450393996615
        }
    },
    {
        "name": "2023-01-01_T30NWP_prediction.tif",
        "bounds": {
            "lat_min": 7.148815902153278,
            "lat_max": 8.140811241581233,
            "lon_min": -3.0001811337181583,
            "lon_max": -2.0035075255399897
        }
    },
    {
        "name": "2023-01-01_T34RGS_prediction.tif",
        "bounds": {
            "lat_min": 27.92215508320956,
            "lat_max": 28.89081787812154,
            "lon_min": 23.032015618614402,
            "lon_max": 24.176083286828074
        }
    },
    {
        "name": "2023-01-01_T43SEA_prediction.tif",
        "bounds": {
            "lat_min": 36.05672396469911,
            "lat_max": 37.04016090386344,
            "lon_min": 74.9997779333102,
            "lon_max": 76.23443803133843
        }
    },
    {
        "name": "2023-01-01_T30QZJ_prediction.tif",
        "bounds": {
            "lat_min": 20.687251030341123,
            "lat_max": 21.656171729418936,
            "lon_min": -0.12047479254036328,
            "lon_max": 0.9581508955871315
        }
    },
    {
        "name": "2023-01-01_T34JCM_prediction.tif",
        "bounds": {
            "lat_min": -30.804455180715916,
            "lat_max": -29.827168443766364,
            "lon_min": 18.90949096121891,
            "lon_max": 20.0664125164639
        }
    },
    {
        "name": "2023-01-01_T38KQF_prediction.tif",
        "bounds": {
            "lat_min": -18.167626196030085,
            "lat_max": -17.163442368224707,
            "lon_min": 46.89037932148196,
            "lon_max": 47.91158972218234
        }
    },
    {
        "name": "2023-01-01_T37PFQ_prediction.tif",
        "bounds": {
            "lat_min": 12.57398506747812,
            "lat_max": 13.560923067579715,
            "lon_min": 39.920576320674265,
            "lon_max": 40.93880182638285
        }
    },
    {
        "name": "2023-01-01_T31RDM_prediction.tif",
        "bounds": {
            "lat_min": 27.93339416739189,
            "lat_max": 28.92824549628122,
            "lon_min": 1.9831869290533686,
            "lon_max": 3.1001363021546617
        }
    },
    {
        "name": "2023-01-01_T36MYS_prediction.tif",
        "bounds": {
            "lat_min": -8.22639812634988,
            "lat_max": -7.228649590030752,
            "lon_min": 34.81525485432916,
            "lon_max": 35.804796158681185
        }
    },
    {
        "name": "2023-01-01_T43QCB_prediction.tif",
        "bounds": {
            "lat_min": 18.89443127910833,
            "lat_max": 19.894341257031243,
            "lon_min": 73.10123149185516,
            "lon_max": 74.13830902755775
        }
    },
    {
        "name": "2023-01-01_T36MZC_prediction.tif",
        "bounds": {
            "lat_min": -2.799531686725722,
            "lat_max": -1.805518735676839,
            "lon_min": 35.69804459718647,
            "lon_max": 36.68185771251837
        }
    },
    {
        "name": "2023-01-01_T35SQA_prediction.tif",
        "bounds": {
            "lat_min": 36.03617591493386,
            "lat_max": 36.99551065345407,
            "lon_min": 29.219473507857263,
            "lon_max": 30.480585508913045
        }
    },
    {
        "name": "2023-01-01_T34KGV_prediction.tif",
        "bounds": {
            "lat_min": -23.585993671672774,
            "lat_max": -22.578234072111698,
            "lon_min": 22.959481074043904,
            "lon_max": 24.01232729536198
        }
    },
    {
        "name": "2023-01-01_T35RKH_prediction.tif",
        "bounds": {
            "lat_min": 24.296321392464336,
            "lat_max": 25.30462389154227,
            "lon_min": 24.044336191371304,
            "lon_max": 25.11048150660746
        }
    },
    {
        "name": "2023-01-01_T33NYG_prediction.tif",
        "bounds": {
            "lat_min": 5.337100277994534,
            "lat_max": 6.325495026648518,
            "lon_min": 16.804467040182153,
            "lon_max": 17.799577320055313
        }
    },
    {
        "name": "2023-01-01_T31NBJ_prediction.tif",
        "bounds": {
            "lat_min": 7.140814823227146,
            "lat_max": 8.138363439972203,
            "lon_min": 0.28385341421129456,
            "lon_max": 1.2735183181302074
        }
    },
    {
        "name": "2023-01-01_T34MFV_prediction.tif",
        "bounds": {
            "lat_min": -5.516014937168377,
            "lat_max": -4.5209122469396785,
            "lon_min": 21.90279070576432,
            "lon_max": 22.890923474117322
        }
    },
    {
        "name": "2023-01-01_T37QEE_prediction.tif",
        "bounds": {
            "lat_min": 21.61505556594182,
            "lat_max": 22.603484343509052,
            "lon_min": 38.99980675786233,
            "lon_max": 40.06807921768864
        }
    },
    {
        "name": "2023-01-01_T28PCU_prediction.tif",
        "bounds": {
            "lat_min": 11.665740831980479,
            "lat_max": 12.663253352588123,
            "lon_min": -16.834717720687493,
            "lon_max": -15.830653758245957
        }
    },
    {
        "name": "2023-01-01_T31RCH_prediction.tif",
        "bounds": {
            "lat_min": 24.312301875374363,
            "lat_max": 25.314010096875364,
            "lon_min": 1.0291185057505725,
            "lon_max": 2.1038639123635865
        }
    },
    {
        "name": "2023-01-01_T37RCL_prediction.tif",
        "bounds": {
            "lat_min": 27.01973558522766,
            "lat_max": 28.022372192218743,
            "lon_min": 36.98407353868215,
            "lon_max": 38.082443501222684
        }
    },
    {
        "name": "2023-01-01_T31SFV_prediction.tif",
        "bounds": {
            "lat_min": 35.149916038016016,
            "lat_max": 36.12220672780887,
            "lon_min": 4.097853838845091,
            "lon_max": 5.331214638986405
        }
    },
    {
        "name": "2023-01-01_T33NVF_prediction.tif",
        "bounds": {
            "lat_min": 4.4343536997489315,
            "lat_max": 5.428218998007228,
            "lon_min": 14.098321569759111,
            "lon_max": 15.088103093359692
        }
    },
    {
        "name": "2023-01-01_T36LYN_prediction.tif",
        "bounds": {
            "lat_min": -11.842543621657185,
            "lat_max": -10.842445222298892,
            "lon_min": 34.83552191249383,
            "lon_max": 35.83291684125402
        }
    },
    {
        "name": "2023-01-01_T35MQM_prediction.tif",
        "bounds": {
            "lat_min": -8.22639812634988,
            "lat_max": -7.228649590030752,
            "lon_min": 28.815254854329158,
            "lon_max": 29.804796158681178
        }
    },
    {
        "name": "2023-01-01_T40RGV_prediction.tif",
        "bounds": {
            "lat_min": 30.62807753495346,
            "lat_max": 31.59381025572144,
            "lon_min": 59.08628898234972,
            "lon_max": 60.264318482819235
        }
    },
    {
        "name": "2023-01-01_T33PWN_prediction.tif",
        "bounds": {
            "lat_min": 10.767029753216537,
            "lat_max": 11.758265072570865,
            "lon_min": 14.999817065468596,
            "lon_max": 16.007522844521517
        }
    },
    {
        "name": "2023-01-01_T36MTU_prediction.tif",
        "bounds": {
            "lat_min": -6.414333810585011,
            "lat_max": -5.4257870188361474,
            "lon_min": 30.287919479643183,
            "lon_max": 31.283152667069206
        }
    },
    {
        "name": "2023-01-01_T33PXQ_prediction.tif",
        "bounds": {
            "lat_min": 12.57398506747812,
            "lat_max": 13.560923067579715,
            "lon_min": 15.920576320674254,
            "lon_max": 16.938801826382843
        }
    },
    {
        "name": "2023-01-01_T43QGC_prediction.tif",
        "bounds": {
            "lat_min": 19.797848807227947,
            "lat_max": 20.774450451798817,
            "lon_min": 76.90886863610335,
            "lon_max": 77.97504605262996
        }
    },
    {
        "name": "2023-01-01_T35KKS_prediction.tif",
        "bounds": {
            "lat_min": -21.766316902803506,
            "lat_max": -20.78996681262231,
            "lon_min": 24.09905173323402,
            "lon_max": 25.17248680529397
        }
    },
    {
        "name": "2023-01-01_T35PLK_prediction.tif",
        "bounds": {
            "lat_min": 8.049556000473947,
            "lat_max": 9.04582460534772,
            "lon_min": 25.185178317280176,
            "lon_max": 26.179281622310686
        }
    },
    {
        "name": "2023-01-01_T34PFT_prediction.tif",
        "bounds": {
            "lat_min": 10.765681258874283,
            "lat_max": 11.75354896249566,
            "lon_min": 21.91463220910531,
            "lon_max": 22.925196098879812
        }
    },
    {
        "name": "2023-01-01_T36PVQ_prediction.tif",
        "bounds": {
            "lat_min": 8.052564670557972,
            "lat_max": 9.046732607286097,
            "lon_min": 32.09210938786526,
            "lon_max": 33.08880809899803
        }
    },
    {
        "name": "2023-01-01_T41RNN_prediction.tif",
        "bounds": {
            "lat_min": 28.839465666370057,
            "lat_max": 29.82558103707535,
            "lon_min": 62.9997949770306,
            "lon_max": 64.13621400391892
        }
    },
    {
        "name": "2023-01-01_T39RVP_prediction.tif",
        "bounds": {
            "lat_min": 29.738160367571574,
            "lat_max": 30.7330299888024,
            "lon_min": 49.96548758328212,
            "lon_max": 51.10195233713697
        }
    },
    {
        "name": "2023-01-01_T31SEU_prediction.tif",
        "bounds": {
            "lat_min": 34.252921588521296,
            "lat_max": 35.23706389018967,
            "lon_min": 2.999782781607622,
            "lon_max": 4.206506725524395
        }
    },
    {
        "name": "2023-01-01_T34MBT_prediction.tif",
        "bounds": {
            "lat_min": -7.317551984720558,
            "lat_max": -6.329651821807011,
            "lon_min": 18.282796635483713,
            "lon_max": 19.280379781679564
        }
    },
    {
        "name": "2023-01-01_T35JLG_prediction.tif",
        "bounds": {
            "lat_min": -30.804455180715916,
            "lat_max": -29.827168443766364,
            "lon_min": 24.909490961218918,
            "lon_max": 26.066412516463906
        }
    },
    {
        "name": "2023-01-01_T39SVA_prediction.tif",
        "bounds": {
            "lat_min": 36.05157871248333,
            "lat_max": 37.04653228059104,
            "lon_min": 49.88931628784717,
            "lon_max": 51.10975932077836
        }
    },
    {
        "name": "2023-01-01_T35NQJ_prediction.tif",
        "bounds": {
            "lat_min": 7.145259922342883,
            "lat_max": 8.132306258876907,
            "lon_min": 28.81066681752923,
            "lon_max": 29.81073385733656
        }
    },
    {
        "name": "2023-01-01_T37QDA_prediction.tif",
        "bounds": {
            "lat_min": 17.99782662091853,
            "lat_max": 18.99249851800192,
            "lon_min": 38.055048140594465,
            "lon_max": 39.092727499916215
        }
    },
    {
        "name": "2023-01-01_T35LNK_prediction.tif",
        "bounds": {
            "lat_min": -10.03932131940076,
            "lat_max": -9.044839870878144,
            "lon_min": 26.99981748878418,
            "lon_max": 27.99885587113877
        }
    },
    {
        "name": "2023-01-01_T43RDN_prediction.tif",
        "bounds": {
            "lat_min": 28.835568152437435,
            "lat_max": 29.830428692795056,
            "lon_min": 73.97454281382029,
            "lon_max": 75.10102341983719
        }
    },
    {
        "name": "2023-01-01_T39QUB_prediction.tif",
        "bounds": {
            "lat_min": 18.89443127910833,
            "lat_max": 19.894341257031243,
            "lon_min": 49.101231491855124,
            "lon_max": 50.13830902755772
        }
    },
    {
        "name": "2023-01-01_T28PFV_prediction.tif",
        "bounds": {
            "lat_min": 12.57398506747812,
            "lat_max": 13.560923067579715,
            "lon_min": -14.079423679325712,
            "lon_max": -13.061198173617123
        }
    },
    {
        "name": "2023-01-01_T30QWF_prediction.tif",
        "bounds": {
            "lat_min": 18.00013067961911,
            "lat_max": 18.989583216997133,
            "lon_min": -3.00018892423586,
            "lon_max": -1.9570691437326944
        }
    },
    {
        "name": "2023-01-01_T38RKP_prediction.tif",
        "bounds": {
            "lat_min": 25.198425815776577,
            "lat_max": 26.207323832486033,
            "lon_min": 42.02290675624055,
            "lon_max": 43.096136823489765
        }
    },
    {
        "name": "2023-01-01_T34RFN_prediction.tif",
        "bounds": {
            "lat_min": 24.321896671420454,
            "lat_max": 25.302003851687026,
            "lon_min": 21.98561193868092,
            "lon_max": 23.083916072663595
        }
    },
    {
        "name": "2023-01-01_T43QFA_prediction.tif",
        "bounds": {
            "lat_min": 17.997828462859562,
            "lat_max": 18.981793161668286,
            "lon_min": 75.9445740674875,
            "lon_max": 76.99281553742749
        }
    },
    {
        "name": "2023-01-01_T35RNL_prediction.tif",
        "bounds": {
            "lat_min": 27.03417096079474,
            "lat_max": 28.0208981203738,
            "lon_min": 26.999798356975738,
            "lon_max": 28.116705261525226
        }
    },
    {
        "name": "2023-01-01_T29RLK_prediction.tif",
        "bounds": {
            "lat_min": 26.11719749774746,
            "lat_max": 27.11952122597705,
            "lon_min": -11.000186351511813,
            "lon_max": -9.910076636355212
        }
    },
    {
        "name": "2023-01-01_T29RNK_prediction.tif",
        "bounds": {
            "lat_min": 26.131077726887217,
            "lat_max": 27.11810245287428,
            "lon_min": -9.00020006733505,
            "lon_max": -7.89239730916359
        }
    },
    {
        "name": "2023-01-01_T43SFU_prediction.tif",
        "bounds": {
            "lat_min": 34.24811115350777,
            "lat_max": 35.221122830647346,
            "lon_min": 76.08600612093245,
            "lon_max": 77.30514540705093
        }
    },
    {
        "name": "2023-01-01_T36PYS_prediction.tif",
        "bounds": {
            "lat_min": 9.857480781072587,
            "lat_max": 10.842445222298892,
            "lon_min": 34.82344645079436,
            "lon_max": 35.83291684125402
        }
    },
    {
        "name": "2023-01-01_T29SNS_prediction.tif",
        "bounds": {
            "lat_min": 32.449128792733916,
            "lat_max": 33.43395206267302,
            "lon_min": -9.000212784034346,
            "lon_max": -7.819042398780467
        }
    },
    {
        "name": "2023-01-01_T36NXH_prediction.tif",
        "bounds": {
            "lat_min": 1.7205807345873043,
            "lat_max": 2.7126939034046416,
            "lon_min": 33.899040324008915,
            "lon_max": 34.88717854710947
        }
    },
    {
        "name": "2023-01-01_T43SES_prediction.tif",
        "bounds": {
            "lat_min": 32.449128792733916,
            "lat_max": 33.43395206267302,
            "lon_min": 74.99978721596567,
            "lon_max": 76.18095760121955
        }
    },
    {
        "name": "2023-01-01_T35SMA_prediction.tif",
        "bounds": {
            "lat_min": 36.05157871248333,
            "lat_max": 37.04653228059104,
            "lon_min": 25.88931628784719,
            "lon_max": 27.10975932077837
        }
    },
    {
        "name": "2023-01-01_T35QMF_prediction.tif",
        "bounds": {
            "lat_min": 22.51574761413287,
            "lat_max": 23.510526689272428,
            "lon_min": 26.02729259381215,
            "lon_max": 27.095599954291966
        }
    },
    {
        "name": "2023-01-01_T38NNK_prediction.tif",
        "bounds": {
            "lat_min": 3.530578858178817,
            "lat_max": 4.523248023873022,
            "lon_min": 44.9998199255628,
            "lon_max": 45.98957796444222
        }
    },
    {
        "name": "2023-01-01_T34MGC_prediction.tif",
        "bounds": {
            "lat_min": -2.8012661852277816,
            "lat_max": -1.80712736494549,
            "lon_min": 22.7988293687575,
            "lon_max": 23.78400948658109
        }
    },
    {
        "name": "2023-01-01_T38SMB_prediction.tif",
        "bounds": {
            "lat_min": 32.444631799264705,
            "lat_max": 33.43953061560175,
            "lon_min": 43.935733295389745,
            "lon_max": 45.10500277360474
        }
    },
    {
        "name": "2023-01-01_T31NBH_prediction.tif",
        "bounds": {
            "lat_min": 6.237589356979093,
            "lat_max": 7.234568851329516,
            "lon_min": 0.2888413608704373,
            "lon_max": 1.277167102798604
        }
    },
    {
        "name": "2023-01-01_T34JEL_prediction.tif",
        "bounds": {
            "lat_min": -31.723243569066128,
            "lat_max": -30.727463361500092,
            "lon_min": 20.999788891382984,
            "lon_max": 22.146652406893978
        }
    },
    {
        "name": "2023-01-01_T32SLC_prediction.tif",
        "bounds": {
            "lat_min": 33.33276710714378,
            "lat_max": 34.33773660758858,
            "lon_min": 6.851132863422908,
            "lon_max": 8.019377567072327
        }
    },
    {
        "name": "2023-01-01_T34RDU_prediction.tif",
        "bounds": {
            "lat_min": 29.738160367571574,
            "lat_max": 30.7330299888024,
            "lon_min": 19.965487583282133,
            "lon_max": 21.101952337136982
        }
    },
    {
        "name": "2023-01-01_T35QRV_prediction.tif",
        "bounds": {
            "lat_min": 17.07699025472153,
            "lat_max": 18.050274700214782,
            "lon_min": 29.818422007874293,
            "lon_max": 30.869569787372818
        }
    },
    {
        "name": "2023-01-01_T35MPT_prediction.tif",
        "bounds": {
            "lat_min": -2.802307101177267,
            "lat_max": -1.8082896916065592,
            "lon_min": 27.899706456448687,
            "lon_max": 28.88601044444974
        }
    },
    {
        "name": "2023-01-01_T29RMQ_prediction.tif",
        "bounds": {
            "lat_min": 30.640626789848564,
            "lat_max": 31.635505628349616,
            "lon_min": -10.04398903055832,
            "lon_max": -8.897075856336116
        }
    },
    {
        "name": "2023-01-01_T36QYH_prediction.tif",
        "bounds": {
            "lat_min": 19.797848807227947,
            "lat_max": 20.774450451798817,
            "lon_min": 34.90886863610333,
            "lon_max": 35.97504605262996
        }
    },
    {
        "name": "2023-01-01_T31PDN_prediction.tif",
        "bounds": {
            "lat_min": 10.765680179976156,
            "lat_max": 11.760029965033297,
            "lon_min": 2.085001970386467,
            "lon_max": 3.0895787007932447
        }
    },
    {
        "name": "2023-01-01_T33NXD_prediction.tif",
        "bounds": {
            "lat_min": 2.6253675906018574,
            "lat_max": 3.617083837887417,
            "lon_min": 15.899575633553184,
            "lon_max": 16.888816018284253
        }
    },
    {
        "name": "2023-01-01_T33RXQ_prediction.tif",
        "bounds": {
            "lat_min": 30.640630140907472,
            "lat_max": 31.616388567663996,
            "lon_min": 16.043571660248944,
            "lon_max": 17.211746166513475
        }
    },
    {
        "name": "2023-01-01_T35PRN_prediction.tif",
        "bounds": {
            "lat_min": 10.75490508392436,
            "lat_max": 11.735297828950777,
            "lon_min": 29.742743768561347,
            "lon_max": 30.758195561657786
        }
    },
    {
        "name": "2023-01-01_T38NPP_prediction.tif",
        "bounds": {
            "lat_min": 7.147926275350679,
            "lat_max": 8.13756923398415,
            "lon_min": 45.90563004812134,
            "lon_max": 46.90413036268046
        }
    },
    {
        "name": "2023-01-01_T32RNT_prediction.tif",
        "bounds": {
            "lat_min": 28.839465666370057,
            "lat_max": 29.82558103707535,
            "lon_min": 8.999794977030598,
            "lon_max": 10.136214003918928
        }
    },
    {
        "name": "2023-01-01_T29NQG_prediction.tif",
        "bounds": {
            "lat_min": 5.337100277994534,
            "lat_max": 6.325495026648518,
            "lon_min": -7.195532959817828,
            "lon_max": -6.200422679944673
        }
    },
    {
        "name": "2023-01-01_T35JLK_prediction.tif",
        "bounds": {
            "lat_min": -28.098611044457343,
            "lat_max": -27.11952122597705,
            "lon_min": 24.964261679147683,
            "lon_max": 26.08992336364479
        }
    },
    {
        "name": "2023-01-01_T34KBV_prediction.tif",
        "bounds": {
            "lat_min": -23.570543112039115,
            "lat_max": -22.595830762730767,
            "lon_min": 18.060829319295316,
            "lon_max": 19.14955291045056
        }
    },
    {
        "name": "2023-01-01_T36LTR_prediction.tif",
        "bounds": {
            "lat_min": -9.124947062919778,
            "lat_max": -8.138363439972203,
            "lon_min": 30.270455344892852,
            "lon_max": 31.273518318130225
        }
    },
    {
        "name": "2023-01-01_T37KDB_prediction.tif",
        "bounds": {
            "lat_min": -17.2711919114347,
            "lat_max": -16.28081360439369,
            "lon_min": 38.05882729858458,
            "lon_max": 39.091350785008906
        }
    },
    {
        "name": "2023-01-01_T34LDM_prediction.tif",
        "bounds": {
            "lat_min": -12.750840871708458,
            "lat_max": -11.759487353284278,
            "lon_min": 20.07842060453898,
            "lon_max": 21.08957852532047
        }
    },
    {
        "name": "2023-01-01_T34QBH_prediction.tif",
        "bounds": {
            "lat_min": 19.78510167740314,
            "lat_max": 20.790508687654714,
            "lon_min": 18.13667550993575,
            "lon_max": 19.172480279364947
        }
    },
    {
        "name": "2023-01-01_T37RGH_prediction.tif",
        "bounds": {
            "lat_min": 24.312306990326128,
            "lat_max": 25.28464285755985,
            "lon_min": 40.97048750044419,
            "lon_max": 42.07585601102272
        }
    },
    {
        "name": "2023-01-01_T38QQG_prediction.tif",
        "bounds": {
            "lat_min": 18.8944351575834,
            "lat_max": 19.871851514482476,
            "lon_min": 46.898388908749034,
            "lon_max": 47.95782415941616
        }
    },
    {
        "name": "2023-01-01_T37PGL_prediction.tif",
        "bounds": {
            "lat_min": 8.953813545783781,
            "lat_max": 9.939479929289988,
            "lon_min": 40.818717920095374,
            "lon_max": 41.824787852279655
        }
    },
    {
        "name": "2023-01-01_T33PWT_prediction.tif",
        "bounds": {
            "lat_min": 15.288176518161794,
            "lat_max": 16.27833889675182,
            "lon_min": 14.999813714583995,
            "lon_max": 16.027449895278476
        }
    },
    {
        "name": "2023-01-01_T32PKB_prediction.tif",
        "bounds": {
            "lat_min": 14.36805229433732,
            "lat_max": 15.370088377261492,
            "lon_min": 6.218279188562398,
            "lon_max": 7.2277938420891195
        }
    },
    {
        "name": "2023-01-01_T34QBD_prediction.tif",
        "bounds": {
            "lat_min": 16.173911652130137,
            "lat_max": 17.177064897976276,
            "lon_min": 18.194367449002165,
            "lon_max": 19.21149749577926
        }
    },
    {
        "name": "2023-01-01_T33MXU_prediction.tif",
        "bounds": {
            "lat_min": -1.897522484474826,
            "lat_max": -0.9038759556361243,
            "lon_min": 15.89912744104411,
            "lon_max": 16.885310269743954
        }
    },
    {
        "name": "2023-01-01_T31PBR_prediction.tif",
        "bounds": {
            "lat_min": 13.464733541566773,
            "lat_max": 14.46621163996924,
            "lon_min": 0.22906516561117454,
            "lon_max": 1.2351828196409778
        }
    },
    {
        "name": "2023-01-01_T34QBK_prediction.tif",
        "bounds": {
            "lat_min": 21.589821193445538,
            "lat_max": 22.596372512954815,
            "lon_min": 18.102584266297,
            "lon_max": 19.14954566774578
        }
    },
    {
        "name": "2023-01-01_T33KYS_prediction.tif",
        "bounds": {
            "lat_min": -21.780461682076165,
            "lat_max": -20.773909033030932,
            "lon_min": 16.93397464729372,
            "lon_max": 17.975035440863323
        }
    },
    {
        "name": "2023-01-01_T35NNJ_prediction.tif",
        "bounds": {
            "lat_min": 7.148815902153278,
            "lat_max": 8.140811241581233,
            "lon_min": 26.99981886628183,
            "lon_max": 27.996492474460002
        }
    },
    {
        "name": "2023-01-01_T37SEU_prediction.tif",
        "bounds": {
            "lat_min": 34.252921588521296,
            "lat_max": 35.23706389018967,
            "lon_min": 38.99978278160763,
            "lon_max": 40.20650672552439
        }
    },
    {
        "name": "2023-01-01_T31SCU_prediction.tif",
        "bounds": {
            "lat_min": 34.233687373493225,
            "lat_max": 35.23901758403807,
            "lon_min": 0.8285025003633553,
            "lon_max": 2.0086500490320756
        }
    },
    {
        "name": "2023-01-01_T38PLS_prediction.tif",
        "bounds": {
            "lat_min": 9.857478810046615,
            "lat_max": 10.854374836537819,
            "lon_min": 43.176188914542216,
            "lon_max": 44.17475330169591
        }
    },
    {
        "name": "2023-01-01_T37PBK_prediction.tif",
        "bounds": {
            "lat_min": 8.044543172464046,
            "lat_max": 9.042658531067866,
            "lon_min": 36.278169819389326,
            "lon_max": 37.26942266211528
        }
    },
    {
        "name": "2023-01-01_T29NMH_prediction.tif",
        "bounds": {
            "lat_min": 6.2437933024837085,
            "lat_max": 7.237818870561194,
            "lon_min": -9.904326288729086,
            "lon_max": -8.911589562290743
        }
    },
    {
        "name": "2023-01-01_T32NMM_prediction.tif",
        "bounds": {
            "lat_min": 5.33908695468687,
            "lat_max": 6.333034666163722,
            "lon_min": 8.097111416262216,
            "lon_max": 9.088245566287274
        }
    },
    {
        "name": "2023-01-01_T38RKV_prediction.tif",
        "bounds": {
            "lat_min": 30.607154336901576,
            "lat_max": 31.61979617078457,
            "lon_min": 41.87082448348791,
            "lon_max": 42.99455611484471
        }
    },
    {
        "name": "2023-01-01_T38PKB_prediction.tif",
        "bounds": {
            "lat_min": 14.36805229433732,
            "lat_max": 15.370088377261492,
            "lon_min": 42.2182791885624,
            "lon_max": 43.22779384208912
        }
    },
    {
        "name": "2023-01-01_T33PTQ_prediction.tif",
        "bounds": {
            "lat_min": 12.56134210722503,
            "lat_max": 13.562262153646177,
            "lon_min": 12.239088021407525,
            "lon_max": 13.242077348363482
        }
    },
    {
        "name": "2023-01-01_T38RQN_prediction.tif",
        "bounds": {
            "lat_min": 24.312306990326128,
            "lat_max": 25.28464285755985,
            "lon_min": 46.9704875004442,
            "lon_max": 48.07585601102273
        }
    },
    {
        "name": "2023-01-01_T33NWE_prediction.tif",
        "bounds": {
            "lat_min": 3.530578858178817,
            "lat_max": 4.523248023873022,
            "lon_min": 14.99981992556278,
            "lon_max": 15.989577964442203
        }
    },
    {
        "name": "2023-01-01_T33PVS_prediction.tif",
        "bounds": {
            "lat_min": 14.382583104023476,
            "lat_max": 15.377121016959125,
            "lon_min": 14.072104709793045,
            "lon_max": 15.090945710169015
        }
    },
    {
        "name": "2023-01-01_T28QCD_prediction.tif",
        "bounds": {
            "lat_min": 16.184190764601958,
            "lat_max": 17.18320929846585,
            "lon_min": -16.870747099037903,
            "lon_max": -15.848202734918075
        }
    },
    {
        "name": "2023-01-01_T40QFL_prediction.tif",
        "bounds": {
            "lat_min": 22.515749962790913,
            "lat_max": 23.49700545728604,
            "lon_min": 57.97231852179852,
            "lon_max": 59.05449573393722
        }
    },
    {
        "name": "2023-01-01_T37MFT_prediction.tif",
        "bounds": {
            "lat_min": -2.802307101177267,
            "lat_max": -1.8082896916065592,
            "lon_min": 39.89970645644868,
            "lon_max": 40.88601044444973
        }
    },
    {
        "name": "2023-01-01_T40SBF_prediction.tif",
        "bounds": {
            "lat_min": 36.01049725724254,
            "lat_max": 37.027307679581,
            "lon_min": 53.67130635192015,
            "lon_max": 54.86149437539399
        }
    },
    {
        "name": "2023-01-01_T35QKB_prediction.tif",
        "bounds": {
            "lat_min": 18.882313566256563,
            "lat_max": 19.887153439908875,
            "lon_min": 24.15238079816868,
            "lon_max": 25.183071142010608
        }
    },
    {
        "name": "2023-01-01_T28RFS_prediction.tif",
        "bounds": {
            "lat_min": 27.93339716855491,
            "lat_max": 28.911085569775096,
            "lon_min": -13.98359343946456,
            "lon_max": -12.848105031052743
        }
    },
    {
        "name": "2023-01-01_T38QNH_prediction.tif",
        "bounds": {
            "lat_min": 19.808046849036526,
            "lat_max": 20.796998473512364,
            "lon_min": 44.99980903537852,
            "lon_max": 46.05483537020576
        }
    },
    {
        "name": "2023-01-01_T36LUP_prediction.tif",
        "bounds": {
            "lat_min": -10.938449216033865,
            "lat_max": -9.949853059258729,
            "lon_min": 31.169902688089586,
            "lon_max": 32.177126206638434
        }
    },
    {
        "name": "2023-01-01_T37SEA_prediction.tif",
        "bounds": {
            "lat_min": 36.05672396469911,
            "lat_max": 37.04016090386344,
            "lon_min": 38.99977793331016,
            "lon_max": 40.2344380313384
        }
    },
    {
        "name": "2023-01-01_T37NBH_prediction.tif",
        "bounds": {
            "lat_min": 6.237589356979093,
            "lat_max": 7.234568851329516,
            "lon_min": 36.28884136087044,
            "lon_max": 37.2771671027986
        }
    },
    {
        "name": "2023-01-01_T38RMQ_prediction.tif",
        "bounds": {
            "lat_min": 26.127603674403147,
            "lat_max": 27.122435117911056,
            "lon_min": 43.99932415791324,
            "lon_max": 45.09847888471672
        }
    },
    {
        "name": "2023-01-01_T37MEV_prediction.tif",
        "bounds": {
            "lat_min": -0.9933940443334821,
            "lat_max": 0.0,
            "lon_min": 38.999820238211946,
            "lon_max": 39.98651606935913
        }
    },
    {
        "name": "2023-01-01_T33LZL_prediction.tif",
        "bounds": {
            "lat_min": -9.124949795153519,
            "lat_max": -8.12502254507701,
            "lon_min": 17.729181024020647,
            "lon_max": 18.717158464545896
        }
    },
    {
        "name": "2023-01-01_T36NXL_prediction.tif",
        "bounds": {
            "lat_min": 4.434354139951234,
            "lat_max": 5.425259436844808,
            "lon_min": 33.90131793320059,
            "lon_max": 34.89350605465411
        }
    },
    {
        "name": "2023-01-01_T33MYQ_prediction.tif",
        "bounds": {
            "lat_min": -5.513961491754248,
            "lat_max": -4.518001438592862,
            "lon_min": 16.804992813288337,
            "lon_max": 17.79125559020796
        }
    },
    {
        "name": "2023-01-01_T40QFK_prediction.tif",
        "bounds": {
            "lat_min": 21.61224960857672,
            "lat_max": 22.594065098127192,
            "lon_min": 57.966158453345166,
            "lon_max": 59.040839461186586
        }
    },
    {
        "name": "2023-01-01_T39LTD_prediction.tif",
        "bounds": {
            "lat_min": -15.447381244855883,
            "lat_max": -14.465669400116921,
            "lon_min": 48.20436962566507,
            "lon_max": 49.23518710279868
        }
    },
    {
        "name": "2023-01-01_T38SQC_prediction.tif",
        "bounds": {
            "lat_min": 33.3327745402878,
            "lat_max": 34.29540572996243,
            "lon_min": 47.14843762608809,
            "lon_max": 48.36525927000315
        }
    },
    {
        "name": "2023-01-01_T36NXG_prediction.tif",
        "bounds": {
            "lat_min": 0.8163279335789816,
            "lat_max": 1.8088322289575174,
            "lon_min": 33.89872827410116,
            "lon_max": 34.886011004790014
        }
    },
    {
        "name": "2023-01-01_T30RYP_prediction.tif",
        "bounds": {
            "lat_min": 25.215084834443317,
            "lat_max": 26.186525524925315,
            "lon_min": -1.0152116355651626,
            "lon_max": 0.09917877924285967
        }
    },
    {
        "name": "2023-01-01_T35MQV_prediction.tif",
        "bounds": {
            "lat_min": -0.9929023238761103,
            "lat_max": 0.0,
            "lon_min": 28.796961619012645,
            "lon_max": 29.78263300406785
        }
    },
    {
        "name": "2023-01-01_T41RMN_prediction.tif",
        "bounds": {
            "lat_min": 28.835568152437435,
            "lat_max": 29.830428692795056,
            "lon_min": 61.97454281382028,
            "lon_max": 63.10102341983717
        }
    },
    {
        "name": "2023-01-01_T35JNK_prediction.tif",
        "bounds": {
            "lat_min": -28.113721606816274,
            "lat_max": -27.11810245287428,
            "lon_min": 26.999796373634073,
            "lon_max": 28.10760269083641
        }
    },
    {
        "name": "2023-01-01_T43RFM_prediction.tif",
        "bounds": {
            "lat_min": 27.93339716855491,
            "lat_max": 28.911085569775096,
            "lon_min": 76.01640656053544,
            "lon_max": 77.15189496894726
        }
    },
    {
        "name": "2023-01-01_T39PVN_prediction.tif",
        "bounds": {
            "lat_min": 10.765680179976156,
            "lat_max": 11.760029965033297,
            "lon_min": 50.08500197038646,
            "lon_max": 51.08957870079323
        }
    },
    {
        "name": "2023-01-01_T28RDR_prediction.tif",
        "bounds": {
            "lat_min": 27.030557949092863,
            "lat_max": 28.02539966187726,
            "lon_min": -16.00855533785583,
            "lon_max": -14.900711587326654
        }
    },
    {
        "name": "2023-01-01_T30QVD_prediction.tif",
        "bounds": {
            "lat_min": 16.19036041669035,
            "lat_max": 17.184971484503517,
            "lon_min": -3.9358827955381424,
            "lon_max": -2.9082174577140023
        }
    },
    {
        "name": "2023-01-01_T33RWK_prediction.tif",
        "bounds": {
            "lat_min": 26.131077726887217,
            "lat_max": 27.11810245287428,
            "lon_min": 14.999799932664931,
            "lon_max": 16.107602690836394
        }
    },
    {
        "name": "2023-01-01_T33KWQ_prediction.tif",
        "bounds": {
            "lat_min": -23.598354935335383,
            "lat_max": -22.602942404355602,
            "lon_min": 14.999803968173973,
            "lon_max": 16.068075035272
        }
    },
    {
        "name": "2023-01-01_T37PHM_prediction.tif",
        "bounds": {
            "lat_min": 9.851323429527744,
            "lat_max": 10.83268473232992,
            "lon_min": 41.734936546758505,
            "lon_max": 42.74645949054402
        }
    },
    {
        "name": "2023-01-01_T35MRS_prediction.tif",
        "bounds": {
            "lat_min": -3.7034039262628857,
            "lat_max": -2.7085354176889473,
            "lon_min": 29.70044940187891,
            "lon_max": 30.684133442100862
        }
    },
    {
        "name": "2023-01-01_T29PQM_prediction.tif",
        "bounds": {
            "lat_min": 9.857480781072587,
            "lat_max": 10.842445222298892,
            "lon_min": -7.176553549205652,
            "lon_max": -6.167083158745988
        }
    },
    {
        "name": "2023-01-01_T37PET_prediction.tif",
        "bounds": {
            "lat_min": 15.288176518161794,
            "lat_max": 16.27833889675182,
            "lon_min": 38.999813714584,
            "lon_max": 40.02744989527849
        }
    },
    {
        "name": "2023-01-01_T41SQB_prediction.tif",
        "bounds": {
            "lat_min": 36.9366503972196,
            "lat_max": 37.894838658606844,
            "lon_min": 65.2453232896392,
            "lon_max": 66.52255091503896
        }
    },
    {
        "name": "2023-01-01_T34PGA_prediction.tif",
        "bounds": {
            "lat_min": 13.47322444951617,
            "lat_max": 14.455290489147796,
            "lon_min": 22.847221702589103,
            "lon_max": 23.873080096805033
        }
    },
    {
        "name": "2023-01-01_T42SUB_prediction.tif",
        "bounds": {
            "lat_min": 32.431162034975834,
            "lat_max": 33.43577879847263,
            "lon_min": 66.87279091999245,
            "lon_max": 68.02964494156727
        }
    },
    {
        "name": "2023-01-01_T41SPA_prediction.tif",
        "bounds": {
            "lat_min": 36.05158282566385,
            "lat_max": 37.02313780213882,
            "lon_min": 64.11023969131566,
            "lon_max": 65.35846754627109
        }
    },
    {
        "name": "2023-01-01_T37NCB_prediction.tif",
        "bounds": {
            "lat_min": 0.816024759568036,
            "lat_max": 1.8096362002067403,
            "lon_min": 37.20276607142331,
            "lon_max": 38.18902080757011
        }
    },
    {
        "name": "2023-01-01_T30QYK_prediction.tif",
        "bounds": {
            "lat_min": 21.603839991453476,
            "lat_max": 22.578775354939836,
            "lon_min": -1.0683826198505297,
            "lon_max": 0.012339072173504577
        }
    },
    {
        "name": "2023-01-01_T37QED_prediction.tif",
        "bounds": {
            "lat_min": 20.711327492296647,
            "lat_max": 21.700020533113534,
            "lon_min": 38.999807927455784,
            "lon_max": 40.06128285940788
        }
    },
    {
        "name": "2023-01-01_T43RCJ_prediction.tif",
        "bounds": {
            "lat_min": 25.215079503987248,
            "lat_max": 26.21709405318707,
            "lon_min": 73.01481478690103,
            "lon_max": 74.09705683540878
        }
    },
    {
        "name": "2023-01-01_T31RGH_prediction.tif",
        "bounds": {
            "lat_min": 24.312306990326128,
            "lat_max": 25.28464285755985,
            "lon_min": 4.970487500444194,
            "lon_max": 6.07585601102272
        }
    },
    {
        "name": "2023-01-01_T31RBL_prediction.tif",
        "bounds": {
            "lat_min": 27.00170621674361,
            "lat_max": 28.011816421561935,
            "lon_min": -0.02314735939145848,
            "lon_max": 1.0653424924166026
        }
    },
    {
        "name": "2023-01-01_T38SKE_prediction.tif",
        "bounds": {
            "lat_min": 35.11016547665246,
            "lat_max": 36.12624261158598,
            "lon_min": 41.708368322656945,
            "lon_max": 42.886210427350626
        }
    },
    {
        "name": "2023-01-01_T42STF_prediction.tif",
        "bounds": {
            "lat_min": 36.01049725724254,
            "lat_max": 37.027307679581,
            "lon_min": 65.67130635192017,
            "lon_max": 66.861494375394
        }
    },
    {
        "name": "2023-01-01_T32SNC_prediction.tif",
        "bounds": {
            "lat_min": 33.35136138110846,
            "lat_max": 34.33584704047571,
            "lon_min": 8.99978504749466,
            "lon_max": 10.193452203482607
        }
    },
    {
        "name": "2023-01-01_T28RGQ_prediction.tif",
        "bounds": {
            "lat_min": 26.1172030466877,
            "lat_max": 27.087733999692304,
            "lon_min": -13.000213491101992,
            "lon_max": -11.876381150878663
        }
    },
    {
        "name": "2023-01-01_T35PKS_prediction.tif",
        "bounds": {
            "lat_min": 14.36805229433732,
            "lat_max": 15.370088377261492,
            "lon_min": 24.2182791885624,
            "lon_max": 25.227793842089117
        }
    },
    {
        "name": "2023-01-01_T41RLP_prediction.tif",
        "bounds": {
            "lat_min": 29.726049025563572,
            "lat_max": 30.72965025136021,
            "lon_min": 60.93222320588495,
            "lon_max": 62.057829637596484
        }
    },
    {
        "name": "2023-01-01_T30SYC_prediction.tif",
        "bounds": {
            "lat_min": 33.3327745402878,
            "lat_max": 34.29540572996243,
            "lon_min": -0.851562373911905,
            "lon_max": 0.3652592700031597
        }
    },
    {
        "name": "2023-01-01_T34KCC_prediction.tif",
        "bounds": {
            "lat_min": -20.87726123213865,
            "lat_max": -19.89379911090453,
            "lon_min": 19.077444412769875,
            "lon_max": 20.13831196087823
        }
    },
    {
        "name": "2023-01-01_T34RFV_prediction.tif",
        "bounds": {
            "lat_min": 30.640630140907472,
            "lat_max": 31.616388567663996,
            "lon_min": 22.043571660248954,
            "lon_max": 23.211746166513482
        }
    },
    {
        "name": "2023-01-01_T29SPS_prediction.tif",
        "bounds": {
            "lat_min": 32.444635394246156,
            "lat_max": 33.41904670709489,
            "lon_min": -7.936158768700706,
            "lon_max": -6.74363158042351
        }
    },
    {
        "name": "2023-01-01_T36QVH_prediction.tif",
        "bounds": {
            "lat_min": 19.80549343326289,
            "lat_max": 20.800215180287324,
            "lon_min": 32.04484452172647,
            "lon_max": 33.093786172122435
        }
    },
    {
        "name": "2023-01-01_T33LYG_prediction.tif",
        "bounds": {
            "lat_min": -12.746032956323317,
            "lat_max": -11.745351120689804,
            "lon_min": 16.84180245000637,
            "lon_max": 17.84179651154094
        }
    },
    {
        "name": "2023-01-01_T35KNS_prediction.tif",
        "bounds": {
            "lat_min": -21.791778063706154,
            "lat_max": -20.796456414058177,
            "lon_min": 26.999806521858403,
            "lon_max": 28.05483160176744
        }
    },
    {
        "name": "2023-01-01_T37RCN_prediction.tif",
        "bounds": {
            "lat_min": 28.82389371472977,
            "lat_max": 29.827168443766364,
            "lon_min": 36.95031111615212,
            "lon_max": 38.0664125164639
        }
    },
    {
        "name": "2023-01-01_T31REQ_prediction.tif",
        "bounds": {
            "lat_min": 30.644818645047156,
            "lat_max": 31.630299377089575,
            "lon_min": 2.9997912710861345,
            "lon_max": 4.157585794996394
        }
    },
    {
        "name": "2023-01-01_T31QEE_prediction.tif",
        "bounds": {
            "lat_min": 21.61505556594182,
            "lat_max": 22.603484343509052,
            "lon_min": 2.999806757862329,
            "lon_max": 4.068079217688635
        }
    },
    {
        "name": "2023-01-01_T40SEA_prediction.tif",
        "bounds": {
            "lat_min": 31.54676675634684,
            "lat_max": 32.53192175954341,
            "lon_min": 56.99978928963552,
            "lon_max": 58.16900726692272
        }
    },
    {
        "name": "2023-01-01_T40QCJ_prediction.tif",
        "bounds": {
            "lat_min": 20.70061947130084,
            "lat_max": 21.701124045176893,
            "lon_min": 55.07968101088681,
            "lon_max": 56.12798556574906
        }
    },
    {
        "name": "2023-01-01_T31RCK_prediction.tif",
        "bounds": {
            "lat_min": 26.11719749774746,
            "lat_max": 27.11952122597705,
            "lon_min": 0.9998136484881789,
            "lon_max": 2.0899233636447794
        }
    },
    {
        "name": "2023-01-01_T41SPS_prediction.tif",
        "bounds": {
            "lat_min": 32.444635394246156,
            "lat_max": 33.41904670709489,
            "lon_min": 64.06384123129929,
            "lon_max": 65.25636841957649
        }
    },
    {
        "name": "2023-01-01_T34PBB_prediction.tif",
        "bounds": {
            "lat_min": 14.36805229433732,
            "lat_max": 15.370088377261492,
            "lon_min": 18.21827918856239,
            "lon_max": 19.22779384208911
        }
    },
    {
        "name": "2023-01-01_T40QGL_prediction.tif",
        "bounds": {
            "lat_min": 22.506951929283684,
            "lat_max": 23.481034383906366,
            "lon_min": 58.94392599371474,
            "lon_max": 60.032475834891606
        }
    },
    {
        "name": "2023-01-01_T38PNA_prediction.tif",
        "bounds": {
            "lat_min": 13.480017137568872,
            "lat_max": 14.470625149443343,
            "lon_min": 44.99981520692991,
            "lon_max": 46.018628231440985
        }
    },
    {
        "name": "2023-01-01_T36QXK_prediction.tif",
        "bounds": {
            "lat_min": 21.61224960857672,
            "lat_max": 22.594065098127192,
            "lon_min": 33.96615845334515,
            "lon_max": 35.04083946118657
        }
    },
    {
        "name": "2023-01-01_T35RQL_prediction.tif",
        "bounds": {
            "lat_min": 27.019741356073123,
            "lat_max": 27.989346360618278,
            "lon_min": 29.015523477387188,
            "lon_max": 30.14924457368946
        }
    },
    {
        "name": "2023-01-01_T29QNB_prediction.tif",
        "bounds": {
            "lat_min": 18.90413268713168,
            "lat_max": 19.893337528749736,
            "lon_min": -9.00018991545207,
            "lon_max": -7.95128036534183
        }
    },
    {
        "name": "2023-01-01_T36MUV_prediction.tif",
        "bounds": {
            "lat_min": -5.5139603964476525,
            "lat_max": -4.522925029018768,
            "lon_min": 31.19464623731226,
            "lon_max": 32.18690721105771
        }
    },
    {
        "name": "2023-01-01_T41RPL_prediction.tif",
        "bounds": {
            "lat_min": 27.0305608374276,
            "lat_max": 28.00886995016642,
            "lon_min": 64.00815212742455,
            "lon_max": 65.13369098939341
        }
    },
    {
        "name": "2023-01-01_T42RWT_prediction.tif",
        "bounds": {
            "lat_min": 28.839465666370057,
            "lat_max": 29.82558103707535,
            "lon_min": 68.99979497703063,
            "lon_max": 70.13621400391895
        }
    },
    {
        "name": "2023-01-01_T40QEK_prediction.tif",
        "bounds": {
            "lat_min": 21.61505556594182,
            "lat_max": 22.603484343509052,
            "lon_min": 56.99980675786235,
            "lon_max": 58.06807921768866
        }
    },
    {
        "name": "2023-01-01_T33PUK_prediction.tif",
        "bounds": {
            "lat_min": 8.049556000473947,
            "lat_max": 9.04582460534772,
            "lon_min": 13.18517831728016,
            "lon_max": 14.179281622310668
        }
    },
    {
        "name": "2023-01-01_T30QTH_prediction.tif",
        "bounds": {
            "lat_min": 19.78510167740314,
            "lat_max": 20.790508687654714,
            "lon_min": -5.863324490064236,
            "lon_max": -4.8275197206350375
        }
    },
    {
        "name": "2023-01-01_T29QPD_prediction.tif",
        "bounds": {
            "lat_min": 20.708649594447937,
            "lat_max": 21.69101582455204,
            "lon_min": -8.039688099413976,
            "lon_max": -6.972138826858456
        }
    },
    {
        "name": "2023-01-01_T33PWL_prediction.tif",
        "bounds": {
            "lat_min": 8.95828239172743,
            "lat_max": 9.949908528134994,
            "lon_min": 14.999818060333435,
            "lon_max": 16.001482101142674
        }
    },
    {
        "name": "2023-01-01_T35LKG_prediction.tif",
        "bounds": {
            "lat_min": -12.738015635993435,
            "lat_max": -11.754161921496657,
            "lon_min": 24.23718733329667,
            "lon_max": 25.254418814275613
        }
    },
    {
        "name": "2023-01-01_T35JLJ_prediction.tif",
        "bounds": {
            "lat_min": -29.0003303740653,
            "lat_max": -28.02183062584221,
            "lon_min": 24.94683853479026,
            "lon_max": 26.08244809322252
        }
    },
    {
        "name": "2023-01-01_T34JDS_prediction.tif",
        "bounds": {
            "lat_min": -26.30419536907358,
            "lat_max": -25.316160250619664,
            "lon_min": 19.99781238041803,
            "lon_max": 21.096969709250633
        }
    },
    {
        "name": "2023-01-01_T33KWU_prediction.tif",
        "bounds": {
            "lat_min": -19.984806533309595,
            "lat_max": -18.989583216997133,
            "lon_min": 14.999808823301999,
            "lon_max": 16.04293085626728
        }
    },
    {
        "name": "2023-01-01_T41SQU_prediction.tif",
        "bounds": {
            "lat_min": 34.23369506240003,
            "lat_max": 35.19525082885167,
            "lon_min": 65.17106347446243,
            "lon_max": 66.40199481396607
        }
    },
    {
        "name": "2023-01-01_T33LTD_prediction.tif",
        "bounds": {
            "lat_min": -15.447381244855883,
            "lat_max": -14.465669400116921,
            "lon_min": 12.204369625665075,
            "lon_max": 13.23518710279868
        }
    },
    {
        "name": "2023-01-01_T29RQL_prediction.tif",
        "bounds": {
            "lat_min": 27.019741356073123,
            "lat_max": 27.989346360618278,
            "lon_min": -6.984476522612811,
            "lon_max": -5.85075542631054
        }
    },
    {
        "name": "2023-01-01_T39QUG_prediction.tif",
        "bounds": {
            "lat_min": 23.409409401504234,
            "lat_max": 24.410813875066943,
            "lon_min": 49.04273765105498,
            "lon_max": 50.110350926705536
        }
    },
    {
        "name": "2023-01-01_T36NUJ_prediction.tif",
        "bounds": {
            "lat_min": 2.624391969976739,
            "lat_max": 3.618693063366469,
            "lon_min": 31.201072397056592,
            "lon_max": 32.18781394794764
        }
    },
    {
        "name": "2023-01-01_T38QQD_prediction.tif",
        "bounds": {
            "lat_min": 16.18419405457014,
            "lat_max": 17.163984028342497,
            "lon_min": 46.87037309362454,
            "lon_max": 47.9115981790631
        }
    },
    {
        "name": "2023-01-01_T28PCA_prediction.tif",
        "bounds": {
            "lat_min": 13.47322173277815,
            "lat_max": 14.471341490470342,
            "lon_min": -16.84759108504057,
            "lon_max": -15.836964352450556
        }
    },
    {
        "name": "2023-01-01_T35MQS_prediction.tif",
        "bounds": {
            "lat_min": -3.7056997527656224,
            "lat_max": -2.710949551811401,
            "lon_min": 28.800434009825747,
            "lon_max": 29.785732296125683
        }
    },
    {
        "name": "2023-01-01_T32PMT_prediction.tif",
        "bounds": {
            "lat_min": 10.765680179976156,
            "lat_max": 11.760029965033297,
            "lon_min": 8.085001970386475,
            "lon_max": 9.089578700793254
        }
    },
    {
        "name": "2023-01-01_T37MDN_prediction.tif",
        "bounds": {
            "lat_min": -7.324840550530372,
            "lat_max": -6.3324918943086175,
            "lon_min": 38.09365476369481,
            "lon_max": 39.088245474125635
        }
    },
    {
        "name": "2023-01-01_T33KXP_prediction.tif",
        "bounds": {
            "lat_min": -24.49853242299186,
            "lat_max": -23.496463834762565,
            "lon_min": 15.986984354903333,
            "lon_max": 17.054487334565557
        }
    },
    {
        "name": "2023-01-01_T34QFK_prediction.tif",
        "bounds": {
            "lat_min": 21.61224960857672,
            "lat_max": 22.594065098127192,
            "lon_min": 21.966158453345134,
            "lon_max": 23.040839461186557
        }
    },
    {
        "name": "2023-01-01_T35LPK_prediction.tif",
        "bounds": {
            "lat_min": -10.038065850907973,
            "lat_max": -9.041232322933778,
            "lon_min": 27.912516083141067,
            "lon_max": 28.908643995444812
        }
    },
    {
        "name": "2023-01-01_T35QKU_prediction.tif",
        "bounds": {
            "lat_min": 16.173911652130137,
            "lat_max": 17.177064897976276,
            "lon_min": 24.194367449002172,
            "lon_max": 25.21149749577927
        }
    },
    {
        "name": "2023-01-01_T35SNV_prediction.tif",
        "bounds": {
            "lat_min": 35.15489003232547,
            "lat_max": 36.13868272703254,
            "lon_min": 26.99978041129976,
            "lon_max": 28.220162168887853
        }
    },
    {
        "name": "2023-01-01_T34LGL_prediction.tif",
        "bounds": {
            "lat_min": -13.649999668565464,
            "lat_max": -12.648734764409351,
            "lon_min": 22.848588744105047,
            "lon_max": 23.851444298848605
        }
    },
    {
        "name": "2023-01-01_T32RKP_prediction.tif",
        "bounds": {
            "lat_min": 25.198425815776577,
            "lat_max": 26.207323832486033,
            "lon_min": 6.0229067562405545,
            "lon_max": 7.096136823489765
        }
    },
    {
        "name": "2023-01-01_T33PTN_prediction.tif",
        "bounds": {
            "lat_min": 10.75490185329543,
            "lat_max": 11.754704280752028,
            "lon_min": 12.256890798788689,
            "lon_max": 13.254415397017029
        }
    },
    {
        "name": "2023-01-01_T40QCG_prediction.tif",
        "bounds": {
            "lat_min": 18.89443127910833,
            "lat_max": 19.894341257031243,
            "lon_min": 55.10123149185516,
            "lon_max": 56.13830902755775
        }
    },
    {
        "name": "2023-01-01_T38QMJ_prediction.tif",
        "bounds": {
            "lat_min": 20.708647451939473,
            "lat_max": 21.703390433604792,
            "lon_min": 44.0393040153308,
            "lon_max": 45.09435955273443
        }
    },
    {
        "name": "2023-01-01_T37PER_prediction.tif",
        "bounds": {
            "lat_min": 13.480017137568872,
            "lat_max": 14.470625149443343,
            "lon_min": 38.9998152069299,
            "lon_max": 40.01862823144097
        }
    },
    {
        "name": "2023-01-01_T36QVF_prediction.tif",
        "bounds": {
            "lat_min": 17.99782662091853,
            "lat_max": 18.99249851800192,
            "lon_min": 32.05504814059448,
            "lon_max": 33.09272749991623
        }
    },
    {
        "name": "2023-01-01_T32NKM_prediction.tif",
        "bounds": {
            "lat_min": 5.333787377507455,
            "lat_max": 6.330194348319539,
            "lon_min": 6.293145879738654,
            "lon_max": 7.280377986821493
        }
    },
    {
        "name": "2023-01-01_T33NYB_prediction.tif",
        "bounds": {
            "lat_min": 0.8160249211949292,
            "lat_max": 1.8076695533437541,
            "lon_min": 16.796874600463866,
            "lon_max": 17.784010313015564
        }
    },
    {
        "name": "2023-01-01_T37QBD_prediction.tif",
        "bounds": {
            "lat_min": 20.687244615513833,
            "lat_max": 21.693221695842098,
            "lon_min": 36.12009119561664,
            "lon_max": 37.16131499592199
        }
    },
    {
        "name": "2023-01-01_T32NNF_prediction.tif",
        "bounds": {
            "lat_min": -0.08848272723993329,
            "lat_max": 0.9047765147707161,
            "lon_min": 8.999820264836305,
            "lon_max": 9.986638272830099
        }
    },
    {
        "name": "2023-01-01_T42QWL_prediction.tif",
        "bounds": {
            "lat_min": 22.51868552983187,
            "lat_max": 23.506844514357567,
            "lon_min": 68.99980552554624,
            "lon_max": 70.07523070318891
        }
    },
    {
        "name": "2023-01-01_T34LGJ_prediction.tif",
        "bounds": {
            "lat_min": -15.457178891085723,
            "lat_max": -14.454748675893107,
            "lon_min": 22.86369925373027,
            "lon_max": 23.873073131204595
        }
    },
    {
        "name": "2023-01-01_T37LDJ_prediction.tif",
        "bounds": {
            "lat_min": -10.94255991274753,
            "lat_max": -9.950853502950984,
            "lon_min": 38.08446365285886,
            "lon_max": 39.08904136336057
        }
    },
    {
        "name": "2023-01-01_T33QUA_prediction.tif",
        "bounds": {
            "lat_min": 17.990924820419306,
            "lat_max": 18.990537867146912,
            "lon_min": 13.11113444182503,
            "lon_max": 14.14306577749677
        }
    },
    {
        "name": "2023-01-01_T35LND_prediction.tif",
        "bounds": {
            "lat_min": -15.465017044043027,
            "lat_max": -14.470082737180787,
            "lon_min": 26.99981355738425,
            "lon_max": 28.018625758218104
        }
    },
    {
        "name": "2023-01-01_T33QYD_prediction.tif",
        "bounds": {
            "lat_min": 20.700623752178174,
            "lat_max": 21.676398866470976,
            "lon_min": 16.91993508778885,
            "lon_max": 17.993201653768477
        }
    },
    {
        "name": "2023-01-01_T39QVE_prediction.tif",
        "bounds": {
            "lat_min": 21.61224736361344,
            "lat_max": 22.607009393134234,
            "lon_min": 50.03345512508265,
            "lon_max": 51.09496396113361
        }
    },
    {
        "name": "2023-01-01_T40QCK_prediction.tif",
        "bounds": {
            "lat_min": 21.603835505887048,
            "lat_max": 22.604638660080553,
            "lon_min": 55.067996386120406,
            "lon_max": 56.12240084614423
        }
    },
    {
        "name": "2023-01-01_T32RLU_prediction.tif",
        "bounds": {
            "lat_min": 29.726049025563572,
            "lat_max": 30.72965025136021,
            "lon_min": 6.932223205884948,
            "lon_max": 8.057829637596486
        }
    },
    {
        "name": "2023-01-01_T32PMV_prediction.tif",
        "bounds": {
            "lat_min": 12.573983802050789,
            "lat_max": 13.568434978647826,
            "lon_min": 8.079055482199486,
            "lon_max": 9.09021225129305
        }
    },
    {
        "name": "2023-01-01_T30RUU_prediction.tif",
        "bounds": {
            "lat_min": 29.726049025563572,
            "lat_max": 30.72965025136021,
            "lon_min": -5.067776794115044,
            "lon_max": -3.942170362403506
        }
    },
    {
        "name": "2023-01-01_T36NVH_prediction.tif",
        "bounds": {
            "lat_min": 1.7205805640620322,
            "lat_max": 2.7141705269374303,
            "lon_min": 32.10060008961872,
            "lon_max": 33.08780846733118
        }
    },
    {
        "name": "2023-01-01_T35LQH_prediction.tif",
        "bounds": {
            "lat_min": -11.842543621657185,
            "lat_max": -10.842445222298892,
            "lon_min": 28.83552191249382,
            "lon_max": 29.832916841254008
        }
    },
    {
        "name": "2023-01-01_T38SKB_prediction.tif",
        "bounds": {
            "lat_min": 32.40872381642382,
            "lat_max": 33.42269790505802,
            "lon_min": 41.81015617979528,
            "lon_max": 42.95408866639289
        }
    },
    {
        "name": "2023-01-01_T36JTT_prediction.tif",
        "bounds": {
            "lat_min": -25.374827326822423,
            "lat_max": -24.401806191994673,
            "lon_min": 30.018593365509872,
            "lon_max": 31.124151886598955
        }
    },
    {
        "name": "2023-01-01_T31PHL_prediction.tif",
        "bounds": {
            "lat_min": 8.948230037798433,
            "lat_max": 9.930548905288994,
            "lon_min": 5.727850316089179,
            "lon_max": 6.735722181101395
        }
    },
    {
        "name": "2023-01-01_T36QXG_prediction.tif",
        "bounds": {
            "lat_min": 18.901706537602813,
            "lat_max": 19.885147012197613,
            "lon_min": 33.949528996374426,
            "lon_max": 35.003870111675226
        }
    },
    {
        "name": "2023-01-01_T34MGA_prediction.tif",
        "bounds": {
            "lat_min": -4.609571394328248,
            "lat_max": -3.614214464614639,
            "lon_min": 22.802486822086195,
            "lon_max": 23.788145705816113
        }
    },
    {
        "name": "2023-01-01_T38SPF_prediction.tif",
        "bounds": {
            "lat_min": 36.05158282566385,
            "lat_max": 37.02313780213882,
            "lon_min": 46.11023969131565,
            "lon_max": 47.358467546271086
        }
    },
    {
        "name": "2023-01-01_T32QNG_prediction.tif",
        "bounds": {
            "lat_min": 18.90413268713168,
            "lat_max": 19.893337528749736,
            "lon_min": 8.99981008454793,
            "lon_max": 10.04871963465817
        }
    },
    {
        "name": "2023-01-01_T32RQS_prediction.tif",
        "bounds": {
            "lat_min": 27.92215508320956,
            "lat_max": 28.89081787812154,
            "lon_min": 11.03201561861441,
            "lon_max": 12.176083286828081
        }
    },
    {
        "name": "2023-01-01_T33KXQ_prediction.tif",
        "bounds": {
            "lat_min": -23.595262326082285,
            "lat_max": -22.59352340919672,
            "lon_min": 15.980103439703198,
            "lon_max": 17.040831474513652
        }
    },
    {
        "name": "2023-01-01_T35RPH_prediction.tif",
        "bounds": {
            "lat_min": 24.321896671420454,
            "lat_max": 25.302003851687026,
            "lon_min": 27.985611938680925,
            "lon_max": 29.083916072663605
        }
    },
    {
        "name": "2023-01-01_T28QFG_prediction.tif",
        "bounds": {
            "lat_min": 18.901706537602813,
            "lat_max": 19.885147012197613,
            "lon_min": -14.05047100362557,
            "lon_max": -12.996129888324766
        }
    },
    {
        "name": "2023-01-01_T36PUQ_prediction.tif",
        "bounds": {
            "lat_min": 8.049556000473947,
            "lat_max": 9.04582460534772,
            "lon_min": 31.185178317280187,
            "lon_max": 32.17928162231069
        }
    },
    {
        "name": "2023-01-01_T35RMJ_prediction.tif",
        "bounds": {
            "lat_min": 25.225075913961692,
            "lat_max": 26.21989619682051,
            "lon_min": 26.006833619254387,
            "lon_max": 27.09770684889991
        }
    },
    {
        "name": "2023-01-01_T34PES_prediction.tif",
        "bounds": {
            "lat_min": 9.86240892564619,
            "lat_max": 10.853842437056153,
            "lon_min": 20.99981758698478,
            "lon_max": 22.004368205584864
        }
    },
    {
        "name": "2023-01-01_T33PYN_prediction.tif",
        "bounds": {
            "lat_min": 10.761639626516008,
            "lat_max": 11.745893062221082,
            "lon_min": 16.828656123506697,
            "lon_max": 17.84180206913814
        }
    },
    {
        "name": "2023-01-01_T31SFU_prediction.tif",
        "bounds": {
            "lat_min": 34.24811115350777,
            "lat_max": 35.221122830647346,
            "lon_min": 4.086006120932435,
            "lon_max": 5.305145407050903
        }
    },
    {
        "name": "2023-01-01_T31REP_prediction.tif",
        "bounds": {
            "lat_min": 29.742203764700186,
            "lat_max": 30.7280046689948,
            "lon_min": 2.9997931661972768,
            "lon_max": 4.146658815193393
        }
    },
    {
        "name": "2023-01-01_T30PYV_prediction.tif",
        "bounds": {
            "lat_min": 12.569244694400812,
            "lat_max": 13.552049447678353,
            "lon_min": -1.159465716451251,
            "lon_max": -0.13813238439924982
        }
    },
    {
        "name": "2023-01-01_T34RDV_prediction.tif",
        "bounds": {
            "lat_min": 30.640626789848564,
            "lat_max": 31.635505628349616,
            "lon_min": 19.95601096944167,
            "lon_max": 21.102924143663873
        }
    },
    {
        "name": "2023-01-01_T36KVA_prediction.tif",
        "bounds": {
            "lat_min": -22.692424988812473,
            "lat_max": -21.703390433604792,
            "lon_min": 32.02605001201283,
            "lon_max": 33.09435955273444
        }
    },
    {
        "name": "2023-01-01_T43RGM_prediction.tif",
        "bounds": {
            "lat_min": 27.92215508320956,
            "lat_max": 28.89081787812154,
            "lon_min": 77.03201561861442,
            "lon_max": 78.1760832868281
        }
    },
    {
        "name": "2023-01-01_T32PKA_prediction.tif",
        "bounds": {
            "lat_min": 13.464733541566773,
            "lat_max": 14.46621163996924,
            "lon_min": 6.229065165611183,
            "lon_max": 7.235182819640985
        }
    },
    {
        "name": "2023-01-01_T31RCN_prediction.tif",
        "bounds": {
            "lat_min": 28.82389371472977,
            "lat_max": 29.827168443766364,
            "lon_min": 0.9503111161521186,
            "lon_max": 2.0664125164638993
        }
    },
    {
        "name": "2023-01-01_T33MVV_prediction.tif",
        "bounds": {
            "lat_min": -0.9932709287619185,
            "lat_max": 0.0,
            "lon_min": 14.100868702110635,
            "lon_max": 15.087710621503698
        }
    },
    {
        "name": "2023-01-01_T31PFQ_prediction.tif",
        "bounds": {
            "lat_min": 12.57398506747812,
            "lat_max": 13.560923067579715,
            "lon_min": 3.920576320674262,
            "lon_max": 4.938801826382851
        }
    },
    {
        "name": "2023-01-01_T32SPE_prediction.tif",
        "bounds": {
            "lat_min": 35.149916038016016,
            "lat_max": 36.12220672780887,
            "lon_min": 10.0978538388451,
            "lon_max": 11.331214638986415
        }
    },
    {
        "name": "2023-01-01_T37NEJ_prediction.tif",
        "bounds": {
            "lat_min": 7.148815902153278,
            "lat_max": 8.140811241581233,
            "lon_min": 38.99981886628182,
            "lon_max": 39.99649247445999
        }
    },
    {
        "name": "2023-01-01_T37QEC_prediction.tif",
        "bounds": {
            "lat_min": 19.808046849036526,
            "lat_max": 20.796998473512364,
            "lon_min": 38.99980903537851,
            "lon_max": 40.05483537020575
        }
    },
    {
        "name": "2023-01-01_T36KWC_prediction.tif",
        "bounds": {
            "lat_min": -20.888068917854838,
            "lat_max": -19.892795412222988,
            "lon_min": 32.99980770358074,
            "lon_max": 34.048716064924136
        }
    },
    {
        "name": "2023-01-01_T30STB_prediction.tif",
        "bounds": {
            "lat_min": 32.40872381642382,
            "lat_max": 33.42269790505802,
            "lon_min": -6.18984382020472,
            "lon_max": -5.045911333607104
        }
    },
    {
        "name": "2023-01-01_T38KME_prediction.tif",
        "bounds": {
            "lat_min": -19.078457469387416,
            "lat_max": -18.08850612432841,
            "lon_min": 44.04908819996788,
            "lon_max": 45.092241052693964
        }
    },
    {
        "name": "2023-01-01_T38PMQ_prediction.tif",
        "bounds": {
            "lat_min": 8.052564670557972,
            "lat_max": 9.046732607286097,
            "lon_min": 44.09210938786524,
            "lon_max": 45.08880809899802
        }
    },
    {
        "name": "2023-01-01_T31SCV_prediction.tif",
        "bounds": {
            "lat_min": 35.1350019519995,
            "lat_max": 36.14070199664509,
            "lon_min": 0.8048299681529983,
            "lon_max": 1.997428689734622
        }
    },
    {
        "name": "2023-01-01_T42SXE_prediction.tif",
        "bounds": {
            "lat_min": 35.149916038016016,
            "lat_max": 36.12220672780887,
            "lon_min": 70.09785383884513,
            "lon_max": 71.33121463898644
        }
    },
    {
        "name": "2023-01-01_T37MDU_prediction.tif",
        "bounds": {
            "lat_min": -1.8975222964012695,
            "lat_max": -0.9043676560064258,
            "lon_min": 38.100512937751,
            "lon_max": 39.08772147564516
        }
    },
    {
        "name": "2023-01-01_T43RGL_prediction.tif",
        "bounds": {
            "lat_min": 27.019741356073123,
            "lat_max": 27.989346360618278,
            "lon_min": 77.0155234773872,
            "lon_max": 78.14924457368947
        }
    },
    {
        "name": "2023-01-01_T29PLK_prediction.tif",
        "bounds": {
            "lat_min": 8.049556000473947,
            "lat_max": 9.04582460534772,
            "lon_min": -10.814821682719822,
            "lon_max": -9.820718377689316
        }
    },
    {
        "name": "2023-01-01_T40RBT_prediction.tif",
        "bounds": {
            "lat_min": 28.804445245113843,
            "lat_max": 29.815801161657966,
            "lon_min": 53.92627494183457,
            "lon_max": 55.0315617772925
        }
    },
    {
        "name": "2023-01-01_T33MXP_prediction.tif",
        "bounds": {
            "lat_min": -6.42071558736057,
            "lat_max": -5.425259436844808,
            "lon_min": 15.904272518933555,
            "lon_max": 16.893506054654086
        }
    },
    {
        "name": "2023-01-01_T39QVC_prediction.tif",
        "bounds": {
            "lat_min": 19.80549343326289,
            "lat_max": 20.800215180287324,
            "lon_min": 50.04484452172644,
            "lon_max": 51.09378617212241
        }
    },
    {
        "name": "2023-01-01_T33MWV_prediction.tif",
        "bounds": {
            "lat_min": -0.9933940443334821,
            "lat_max": 0.0,
            "lon_min": 14.999820238211937,
            "lon_max": 15.986516069359123
        }
    },
    {
        "name": "2023-01-01_T37RFH_prediction.tif",
        "bounds": {
            "lat_min": 24.321896671420454,
            "lat_max": 25.302003851687026,
            "lon_min": 39.98561193868092,
            "lon_max": 41.0839160726636
        }
    },
    {
        "name": "2023-01-01_T33RVQ_prediction.tif",
        "bounds": {
            "lat_min": 30.640626789848564,
            "lat_max": 31.635505628349616,
            "lon_min": 13.956010969441664,
            "lon_max": 15.102924143663866
        }
    },
    {
        "name": "2023-01-01_T31RBH_prediction.tif",
        "bounds": {
            "lat_min": 24.296321392464336,
            "lat_max": 25.30462389154227,
            "lon_min": 0.04433619137129564,
            "lon_max": 1.1104815066074534
        }
    },
    {
        "name": "2023-01-01_T38SQA_prediction.tif",
        "bounds": {
            "lat_min": 31.529422327451968,
            "lat_max": 32.4941417267423,
            "lon_min": 47.106076243528165,
            "lon_max": 48.29646450393996
        }
    },
    {
        "name": "2023-01-01_T30RTQ_prediction.tif",
        "bounds": {
            "lat_min": 26.09986130673257,
            "lat_max": 27.109361416616203,
            "lon_min": -5.99956703630363,
            "lon_max": -4.918895479047439
        }
    },
    {
        "name": "2023-01-01_T34LEP_prediction.tif",
        "bounds": {
            "lat_min": -10.943932182568775,
            "lat_max": -9.949365935459788,
            "lon_min": 20.999816957825068,
            "lon_max": 22.0014804480775
        }
    },
    {
        "name": "2023-01-01_T30QXG_prediction.tif",
        "bounds": {
            "lat_min": 18.901706537602813,
            "lat_max": 19.885147012197613,
            "lon_min": -2.050471003625579,
            "lon_max": -0.9961298883247746
        }
    },
    {
        "name": "2023-01-01_T34JGR_prediction.tif",
        "bounds": {
            "lat_min": -27.19622808252524,
            "lat_max": -26.18598454310126,
            "lon_min": 23.018688478045306,
            "lon_max": 24.09916445273238
        }
    },
    {
        "name": "2023-01-01_T38PNV_prediction.tif",
        "bounds": {
            "lat_min": 12.575566702423204,
            "lat_max": 13.566389345621099,
            "lon_min": 44.99981587638976,
            "lon_max": 46.014647134957
        }
    },
    {
        "name": "2023-01-01_T30RWR_prediction.tif",
        "bounds": {
            "lat_min": 27.03417096079474,
            "lat_max": 28.0208981203738,
            "lon_min": -3.0002016430242535,
            "lon_max": -1.8832947384747634
        }
    },
    {
        "name": "2023-01-01_T39QXD_prediction.tif",
        "bounds": {
            "lat_min": 20.708649594447937,
            "lat_max": 21.69101582455204,
            "lon_min": 51.96031190058601,
            "lon_max": 53.027861173141524
        }
    },
    {
        "name": "2023-01-01_T29QNE_prediction.tif",
        "bounds": {
            "lat_min": 21.61505556594182,
            "lat_max": 22.603484343509052,
            "lon_min": -9.000193242137664,
            "lon_max": -7.931920782311356
        }
    },
    {
        "name": "2023-01-01_T35QNG_prediction.tif",
        "bounds": {
            "lat_min": 23.421672178467453,
            "lat_max": 24.409556001633113,
            "lon_min": 26.99980422948886,
            "lon_max": 28.08274340663946
        }
    },
    {
        "name": "2023-01-01_T34QDF_prediction.tif",
        "bounds": {
            "lat_min": 17.99782662091853,
            "lat_max": 18.99249851800192,
            "lon_min": 20.055048140594465,
            "lon_max": 21.09272749991621
        }
    },
    {
        "name": "2023-01-01_T34JBM_prediction.tif",
        "bounds": {
            "lat_min": -30.7833923229328,
            "lat_max": -29.815801161657966,
            "lon_min": 17.865127985853643,
            "lon_max": 19.031561777292474
        }
    },
    {
        "name": "2023-01-01_T30PXV_prediction.tif",
        "bounds": {
            "lat_min": 12.57398506747812,
            "lat_max": 13.560923067579715,
            "lon_min": -2.0794236793257213,
            "lon_max": -1.0611981736171319
        }
    },
    {
        "name": "2023-01-01_T39KTT_prediction.tif",
        "bounds": {
            "lat_min": -20.863761909574617,
            "lat_max": -19.886611505742938,
            "lon_min": 48.11674010503582,
            "lon_max": 49.183077323885335
        }
    },
    {
        "name": "2023-01-01_T35JPH_prediction.tif",
        "bounds": {
            "lat_min": -29.914660727730396,
            "lat_max": -28.91054438788496,
            "lon_min": 28.035917717572023,
            "lon_max": 29.151883796036238
        }
    },
    {
        "name": "2023-01-01_T32RNR_prediction.tif",
        "bounds": {
            "lat_min": 27.03417096079474,
            "lat_max": 28.0208981203738,
            "lon_min": 8.999798356975738,
            "lon_max": 10.116705261525228
        }
    },
    {
        "name": "2023-01-01_T33LWF_prediction.tif",
        "bounds": {
            "lat_min": -13.656884793835896,
            "lat_max": -12.662087099343708,
            "lon_min": 14.999815070078359,
            "lon_max": 16.01094629978638
        }
    },
    {
        "name": "2023-01-01_T38RKU_prediction.tif",
        "bounds": {
            "lat_min": 29.705872941276446,
            "lat_max": 30.717866420452943,
            "lon_min": 41.899179492648926,
            "lon_max": 43.013476249921595
        }
    },
    {
        "name": "2023-01-01_T38KRG_prediction.tif",
        "bounds": {
            "lat_min": -17.25358567309974,
            "lat_max": -16.246135896158037,
            "lon_min": 47.821092324595995,
            "lon_max": 48.83232252399481
        }
    },
    {
        "name": "2023-01-01_T42SVB_prediction.tif",
        "bounds": {
            "lat_min": 32.444631799264705,
            "lat_max": 33.43953061560175,
            "lon_min": 67.93573329538978,
            "lon_max": 69.10500277360477
        }
    },
    {
        "name": "2023-01-01_T42SXA_prediction.tif",
        "bounds": {
            "lat_min": 31.542427285957363,
            "lat_max": 32.517518690241815,
            "lon_min": 70.05347599928099,
            "lon_max": 71.23355267788087
        }
    },
    {
        "name": "2023-01-01_T37QEU_prediction.tif",
        "bounds": {
            "lat_min": 16.19242004858848,
            "lat_max": 17.182351280373663,
            "lon_min": 38.999812889266266,
            "lon_max": 40.032304959845185
        }
    },
    {
        "name": "2023-01-01_T36LXK_prediction.tif",
        "bounds": {
            "lat_min": -14.559415730692999,
            "lat_max": -13.560923067579715,
            "lon_min": 33.92825880750604,
            "lon_max": 34.93880182638287
        }
    },
    {
        "name": "2023-01-01_T37SDA_prediction.tif",
        "bounds": {
            "lat_min": 36.05157871248333,
            "lat_max": 37.04653228059104,
            "lon_min": 37.88931628784718,
            "lon_max": 39.109759320778366
        }
    },
    {
        "name": "2023-01-01_T42RXS_prediction.tif",
        "bounds": {
            "lat_min": 27.93339716855491,
            "lat_max": 28.911085569775096,
            "lon_min": 70.01640656053546,
            "lon_max": 71.15189496894727
        }
    },
    {
        "name": "2023-01-01_T40RDU_prediction.tif",
        "bounds": {
            "lat_min": 29.738160367571574,
            "lat_max": 30.7330299888024,
            "lon_min": 55.965487583282155,
            "lon_max": 57.10195233713701
        }
    },
    {
        "name": "2023-01-01_T34JFQ_prediction.tif",
        "bounds": {
            "lat_min": -28.10994260986257,
            "lat_max": -27.106525458574684,
            "lon_min": 22.018066139328347,
            "lon_max": 23.116310221018534
        }
    },
    {
        "name": "2023-01-01_T38KMG_prediction.tif",
        "bounds": {
            "lat_min": -17.2711919114347,
            "lat_max": -16.28081360439369,
            "lon_min": 44.05882729858459,
            "lon_max": 45.09135078500892
        }
    },
    {
        "name": "2023-01-01_T36KYU_prediction.tif",
        "bounds": {
            "lat_min": -24.488864166252963,
            "lat_max": -23.480493172760717,
            "lon_min": 34.97322968208656,
            "lon_max": 36.03246344978051
        }
    },
    {
        "name": "2023-01-01_T36PVR_prediction.tif",
        "bounds": {
            "lat_min": 8.957163489878068,
            "lat_max": 9.951396178341643,
            "lon_min": 32.089977224992566,
            "lon_max": 33.08904151036388
        }
    },
    {
        "name": "2023-01-01_T43QDV_prediction.tif",
        "bounds": {
            "lat_min": 17.09440548556774,
            "lat_max": 18.089048437033497,
            "lon_min": 74.05971944862982,
            "lon_max": 75.09224133614406
        }
    },
    {
        "name": "2023-01-01_T34QEM_prediction.tif",
        "bounds": {
            "lat_min": 23.421672178467453,
            "lat_max": 24.409556001633113,
            "lon_min": 20.999804229488852,
            "lon_max": 22.08274340663945
        }
    },
    {
        "name": "2023-01-01_T31RGK_prediction.tif",
        "bounds": {
            "lat_min": 26.1172030466877,
            "lat_max": 27.087733999692304,
            "lon_min": 4.999786508897983,
            "lon_max": 6.123618849121311
        }
    },
    {
        "name": "2023-01-01_T43QCU_prediction.tif",
        "bounds": {
            "lat_min": 16.184190764601958,
            "lat_max": 17.18320929846585,
            "lon_min": 73.1292529009621,
            "lon_max": 74.15179726508191
        }
    },
    {
        "name": "2023-01-01_T39NTG_prediction.tif",
        "bounds": {
            "lat_min": 5.333787377507455,
            "lat_max": 6.330194348319539,
            "lon_min": 48.29314587973864,
            "lon_max": 49.28037798682147
        }
    },
    {
        "name": "2023-01-01_T35LNF_prediction.tif",
        "bounds": {
            "lat_min": -13.656884793835896,
            "lat_max": -12.662087099343708,
            "lon_min": 26.999815070078377,
            "lon_max": 28.010946299786394
        }
    },
    {
        "name": "2023-01-01_T37RCP_prediction.tif",
        "bounds": {
            "lat_min": 29.726049025563572,
            "lat_max": 30.72965025136021,
            "lon_min": 36.93222320588494,
            "lon_max": 38.05782963759648
        }
    },
    {
        "name": "2023-01-01_T35LMJ_prediction.tif",
        "bounds": {
            "lat_min": -10.94255991274753,
            "lat_max": -9.950853502950984,
            "lon_min": 26.08446365285887,
            "lon_max": 27.08904136336058
        }
    },
    {
        "name": "2023-01-01_T33RWN_prediction.tif",
        "bounds": {
            "lat_min": 28.839465666370057,
            "lat_max": 29.82558103707535,
            "lon_min": 14.99979497703058,
            "lon_max": 16.136214003918912
        }
    },
    {
        "name": "2023-01-01_T34QDH_prediction.tif",
        "bounds": {
            "lat_min": 19.80549343326289,
            "lat_max": 20.800215180287324,
            "lon_min": 20.04484452172645,
            "lon_max": 21.093786172122414
        }
    },
    {
        "name": "2023-01-01_T33KXB_prediction.tif",
        "bounds": {
            "lat_min": -17.271193674378164,
            "lat_max": -16.271726105475132,
            "lon_min": 15.940796419861003,
            "lon_max": 16.96325170260064
        }
    },
    {
        "name": "2023-01-01_T31QBG_prediction.tif",
        "bounds": {
            "lat_min": 23.394092945768847,
            "lat_max": 24.401806191994673,
            "lon_min": 0.06474044446211587,
            "lon_max": 1.124151886598937
        }
    },
    {
        "name": "2023-01-01_T31SGT_prediction.tif",
        "bounds": {
            "lat_min": 33.3327745402878,
            "lat_max": 34.29540572996243,
            "lon_min": 5.148437626088078,
            "lon_max": 6.3652592700031425
        }
    },
    {
        "name": "2023-01-01_T35PNL_prediction.tif",
        "bounds": {
            "lat_min": 8.95828239172743,
            "lat_max": 9.949908528134994,
            "lon_min": 26.999818060333453,
            "lon_max": 28.00148210114269
        }
    },
    {
        "name": "2023-01-01_T36JTM_prediction.tif",
        "bounds": {
            "lat_min": -30.7833923229328,
            "lat_max": -29.815801161657966,
            "lon_min": 29.86512798585366,
            "lon_max": 31.031561777292495
        }
    },
    {
        "name": "2023-01-01_T39RYL_prediction.tif",
        "bounds": {
            "lat_min": 27.019741356073123,
            "lat_max": 27.989346360618278,
            "lon_min": 53.01552347738717,
            "lon_max": 54.149244573689444
        }
    },
    {
        "name": "2023-01-01_T35QKF_prediction.tif",
        "bounds": {
            "lat_min": 22.49228574713418,
            "lat_max": 23.499415707073357,
            "lon_min": 24.084139065639974,
            "lon_max": 25.1371614743466
        }
    },
    {
        "name": "2023-01-01_T38PNB_prediction.tif",
        "bounds": {
            "lat_min": 14.384402561123013,
            "lat_max": 15.374790441249742,
            "lon_min": 44.99981448648599,
            "lon_max": 46.02289485856182
        }
    },
    {
        "name": "2023-01-01_T41RPQ_prediction.tif",
        "bounds": {
            "lat_min": 30.640630140907472,
            "lat_max": 31.616388567663996,
            "lon_min": 64.04357166024896,
            "lon_max": 65.21174616651348
        }
    },
    {
        "name": "2023-01-01_T34JFM_prediction.tif",
        "bounds": {
            "lat_min": -30.817102390629277,
            "lat_max": -29.812628201152723,
            "lon_min": 22.04547479806959,
            "lon_max": 23.1709407040413
        }
    },
    {
        "name": "2023-01-01_T29QME_prediction.tif",
        "bounds": {
            "lat_min": 21.61224736361344,
            "lat_max": 22.607009393134234,
            "lon_min": -9.966544874917334,
            "lon_max": -8.905036038866372
        }
    },
    {
        "name": "2023-01-01_T31PDR_prediction.tif",
        "bounds": {
            "lat_min": 13.478316386290897,
            "lat_max": 14.472812699007603,
            "lon_min": 2.075707575766102,
            "lon_max": 3.09056628433975
        }
    },
    {
        "name": "2023-01-01_T30PXQ_prediction.tif",
        "bounds": {
            "lat_min": 8.052565473494557,
            "lat_max": 9.04177472412183,
            "lon_min": -2.092472367749047,
            "lon_max": -1.0913531470579891
        }
    },
    {
        "name": "2023-01-01_T33QYF_prediction.tif",
        "bounds": {
            "lat_min": 22.506951929283684,
            "lat_max": 23.481034383906366,
            "lon_min": 16.943925993714704,
            "lon_max": 18.032475834891574
        }
    },
    {
        "name": "2023-01-01_T38RPU_prediction.tif",
        "bounds": {
            "lat_min": 29.738163599954685,
            "lat_max": 30.714577205775168,
            "lon_min": 46.034098833355415,
            "lon_max": 47.19088333140078
        }
    },
    {
        "name": "2023-01-01_T28PFU_prediction.tif",
        "bounds": {
            "lat_min": 11.670133195595614,
            "lat_max": 12.657539553139847,
            "lon_min": -14.082517993526627,
            "lon_max": -13.06826180173073
        }
    },
    {
        "name": "2023-01-01_T35RLP_prediction.tif",
        "bounds": {
            "lat_min": 29.726049025563572,
            "lat_max": 30.72965025136021,
            "lon_min": 24.93222320588495,
            "lon_max": 26.057829637596484
        }
    },
    {
        "name": "2023-01-01_T39NTH_prediction.tif",
        "bounds": {
            "lat_min": 6.237589356979093,
            "lat_max": 7.234568851329516,
            "lon_min": 48.28884136087043,
            "lon_max": 49.27716710279859
        }
    },
    {
        "name": "2023-01-01_T34JFP_prediction.tif",
        "bounds": {
            "lat_min": -29.01209280543713,
            "lat_max": -28.008328690055937,
            "lon_min": 22.026784970141556,
            "lon_max": 23.133680319176744
        }
    },
    {
        "name": "2023-01-01_T33LUC_prediction.tif",
        "bounds": {
            "lat_min": -16.360921843925436,
            "lat_max": -15.375011220716456,
            "lon_min": 13.12757755876092,
            "lon_max": 14.159531870799514
        }
    },
    {
        "name": "2023-01-01_T34KDF_prediction.tif",
        "bounds": {
            "lat_min": -18.174596638694386,
            "lat_max": -17.18442912213914,
            "lon_min": 20.05410122391087,
            "lon_max": 21.091782275240025
        }
    },
    {
        "name": "2023-01-01_T37NDB_prediction.tif",
        "bounds": {
            "lat_min": 0.8163278526915162,
            "lat_max": 1.8098164531007161,
            "lon_min": 38.10091226429511,
            "lon_max": 39.087754103606834
        }
    },
    {
        "name": "2023-01-01_T36RVT_prediction.tif",
        "bounds": {
            "lat_min": 28.835568152437435,
            "lat_max": 29.830428692795056,
            "lon_min": 31.974542813820285,
            "lon_max": 33.101023419837176
        }
    },
    {
        "name": "2023-01-01_T37RFP_prediction.tif",
        "bounds": {
            "lat_min": 29.738163599954685,
            "lat_max": 30.714577205775168,
            "lon_min": 40.03409883335541,
            "lon_max": 41.19088333140077
        }
    },
    {
        "name": "2023-01-01_T28QDK_prediction.tif",
        "bounds": {
            "lat_min": 21.61224736361344,
            "lat_max": 22.607009393134234,
            "lon_min": -15.96654487491732,
            "lon_max": -14.905036038866356
        }
    },
    {
        "name": "2023-01-01_T39QUE_prediction.tif",
        "bounds": {
            "lat_min": 21.603835505887048,
            "lat_max": 22.604638660080553,
            "lon_min": 49.06799638612037,
            "lon_max": 50.1224008461442
        }
    },
    {
        "name": "2023-01-01_T36JTP_prediction.tif",
        "bounds": {
            "lat_min": -28.980740585716138,
            "lat_max": -28.011275094624203,
            "lon_min": 29.921073001649457,
            "lon_max": 31.065352168893103
        }
    },
    {
        "name": "2023-01-01_T43RFJ_prediction.tif",
        "bounds": {
            "lat_min": 25.225078581842684,
            "lat_max": 26.20459661063145,
            "lon_min": 75.99276932018438,
            "lon_max": 77.09973405599841
        }
    },
    {
        "name": "2023-01-01_T43RGK_prediction.tif",
        "bounds": {
            "lat_min": 26.1172030466877,
            "lat_max": 27.087733999692304,
            "lon_min": 76.99978650889801,
            "lon_max": 78.12361884912134
        }
    },
    {
        "name": "2023-01-01_T38RMV_prediction.tif",
        "bounds": {
            "lat_min": 30.640626789848564,
            "lat_max": 31.635505628349616,
            "lon_min": 43.95601096944168,
            "lon_max": 45.102924143663884
        }
    },
    {
        "name": "2023-01-01_T34RGT_prediction.tif",
        "bounds": {
            "lat_min": 28.823899939881475,
            "lat_max": 29.79160421658507,
            "lon_min": 23.049279162226625,
            "lon_max": 24.204162219634362
        }
    },
    {
        "name": "2023-01-01_T30RVR_prediction.tif",
        "bounds": {
            "lat_min": 27.030557949092863,
            "lat_max": 28.02539966187726,
            "lon_min": -4.0085553378558405,
            "lon_max": -2.9007115873266636
        }
    },
    {
        "name": "2023-01-01_T37QGF_prediction.tif",
        "bounds": {
            "lat_min": 22.506951929283684,
            "lat_max": 23.481034383906366,
            "lon_min": 40.943925993714714,
            "lon_max": 42.03247583489158
        }
    },
    {
        "name": "2023-01-01_T37REN_prediction.tif",
        "bounds": {
            "lat_min": 28.839465666370057,
            "lat_max": 29.82558103707535,
            "lon_min": 38.99979497703059,
            "lon_max": 40.13621400391892
        }
    },
    {
        "name": "2023-01-01_T33LXH_prediction.tif",
        "bounds": {
            "lat_min": -11.847002023104217,
            "lat_max": -10.849497919967378,
            "lon_min": 15.918068004703638,
            "lon_max": 16.91917142631688
        }
    },
    {
        "name": "2023-01-01_T32PLQ_prediction.tif",
        "bounds": {
            "lat_min": 8.049556000473947,
            "lat_max": 9.04582460534772,
            "lon_min": 7.185178317280177,
            "lon_max": 8.179281622310684
        }
    },
    {
        "name": "2023-01-01_T34KEV_prediction.tif",
        "bounds": {
            "lat_min": -23.598354935335383,
            "lat_max": -22.602942404355602,
            "lon_min": 20.999803968173982,
            "lon_max": 22.06807503527201
        }
    },
    {
        "name": "2023-01-01_T37RGM_prediction.tif",
        "bounds": {
            "lat_min": 27.92215508320956,
            "lat_max": 28.89081787812154,
            "lon_min": 41.0320156186144,
            "lon_max": 42.176083286828074
        }
    },
    {
        "name": "2023-01-01_T42SWD_prediction.tif",
        "bounds": {
            "lat_min": 34.252921588521296,
            "lat_max": 35.23706389018967,
            "lon_min": 68.99978278160766,
            "lon_max": 70.20650672552445
        }
    },
    {
        "name": "2023-01-01_T35PNK_prediction.tif",
        "bounds": {
            "lat_min": 8.05356904776694,
            "lat_max": 9.045382491985448,
            "lon_min": 26.999818486685434,
            "lon_max": 27.998857367364227
        }
    },
    {
        "name": "2023-01-01_T42RTP_prediction.tif",
        "bounds": {
            "lat_min": 25.198425815776577,
            "lat_max": 26.207323832486033,
            "lon_min": 66.02290675624059,
            "lon_max": 67.0961368234898
        }
    },
    {
        "name": "2023-01-01_T34LEM_prediction.tif",
        "bounds": {
            "lat_min": -12.752446754979546,
            "lat_max": -11.757722544497422,
            "lon_min": 20.99981574943735,
            "lon_max": 22.007520871321677
        }
    },
    {
        "name": "2023-01-01_T35PKT_prediction.tif",
        "bounds": {
            "lat_min": 15.270751954910622,
            "lat_max": 16.273346049089593,
            "lon_min": 24.206723036861625,
            "lon_max": 25.219905437988416
        }
    },
    {
        "name": "2023-01-01_T32RMT_prediction.tif",
        "bounds": {
            "lat_min": 28.835568152437435,
            "lat_max": 29.830428692795056,
            "lon_min": 7.974542813820279,
            "lon_max": 9.10102341983717
        }
    },
    {
        "name": "2023-01-01_T36PWS_prediction.tif",
        "bounds": {
            "lat_min": 9.86240892564619,
            "lat_max": 10.853842437056153,
            "lon_min": 32.99981758698479,
            "lon_max": 34.00436820558488
        }
    },
    {
        "name": "2023-01-01_T43SDT_prediction.tif",
        "bounds": {
            "lat_min": 33.34670729904409,
            "lat_max": 34.341617478566754,
            "lon_min": 73.9248899417254,
            "lon_max": 75.10611402643649
        }
    },
    {
        "name": "2023-01-01_T33MVU_prediction.tif",
        "bounds": {
            "lat_min": -1.8975222964012695,
            "lat_max": -0.9043676560064258,
            "lon_min": 14.100512937750992,
            "lon_max": 15.087721475645152
        }
    },
    {
        "name": "2023-01-01_T30SWC_prediction.tif",
        "bounds": {
            "lat_min": 33.35136138110846,
            "lat_max": 34.33584704047571,
            "lon_min": -3.000214952505332,
            "lon_max": -1.8065477965173844
        }
    },
    {
        "name": "2023-01-01_T39PVT_prediction.tif",
        "bounds": {
            "lat_min": 15.286237505126845,
            "lat_max": 16.28081360439369,
            "lon_min": 50.06824451551784,
            "lon_max": 51.0913507850089
        }
    },
    {
        "name": "2023-01-01_T35QPB_prediction.tif",
        "bounds": {
            "lat_min": 18.901706537602813,
            "lat_max": 19.885147012197613,
            "lon_min": 27.94952899637441,
            "lon_max": 29.003870111675216
        }
    },
    {
        "name": "2023-01-01_T37LEL_prediction.tif",
        "bounds": {
            "lat_min": -9.135203912425965,
            "lat_max": -8.140811241581233,
            "lon_min": 38.99981797144475,
            "lon_max": 39.99649247445999
        }
    },